To stop: Ctrl-C, or enter "quit" + [return] here in the console
Usage: node /Users/olediouris/repos/node.pi/testGPS.js [raw]|fmt
Serial /dev/tty.usbserial br 4800
Port open
$GPGGA,212704.001,3744.9294,N,12230.4165,W,1,06,2.4,-21.0,M,,,,0000*06
$GPGGA,212704.001,3744.9294,N,12230.4165,W,1,06,2.4,-21.0,M,,,,0000*06
$GPGGA,212704.001,3744.9294,N,12230.4165,W,1,06,2.4,-21.0,M,,,,0000*06
$GPGSA,A,3,14,10,32,27,18,31,,,,,,,3.6,2.4,2.7*3F
$GPGSA,A,3,14,10,32,27,18,31,,,,,,,3.6,2.4,2.7*3F
$GPGSA,A,3,14,10,32,27,18,31,,,,,,,3.6,2.4,2.7*3F
$GPGSV,3,1,12,14,73,220,29,10,49,064,28,32,76,041,28,27,24,217,33*7E
$GPGSV,3,1,12,14,73,220,29,10,49,064,28,32,76,041,28,27,24,217,33*7E
$GPGSV,3,1,12,14,73,220,29,10,49,064,28,32,76,041,28,27,24,217,33*7E
$GPGSV,3,2,12,18,22,085,36,31,22,161,29,01,21,316,19,11,33,305,*7D
$GPGSV,3,2,12,18,22,085,36,31,22,161,29,01,21,316,19,11,33,305,*7D
$GPGSV,3,2,12,18,22,085,36,31,22,161,29,01,21,316,19,11,33,305,*7D
$GPGSV,3,3,12,08,32,263,,22,14,284,,24,06,036,,21,03,140,*7F
$GPGSV,3,3,12,08,32,263,,22,14,284,,24,06,036,,21,03,140,*7F
$GPGSV,3,3,12,08,32,263,,22,14,284,,24,06,036,,21,03,140,*7F
$GPRMC,212704.001,A,3744.9294,N,12230.4165,W,000.0,000.0,241116,,,A*78
$GPRMC,212704.001,A,3744.9294,N,12230.4165,W,000.0,000.0,241116,,,A*78
$GPRMC,212704.001,A,3744.9294,N,12230.4165,W,000.0,000.0,241116,,,A*78
$GPGGA,212705.001,3744.9294,N,12230.4165,W,1,06,2.4,-21.0,M,,,,0000*07
$GPGGA,212705.001,3744.9294,N,12230.4165,W,1,06,2.4,-21.0,M,,,,0000*07
$GPGGA,212705.001,3744.9294,N,12230.4165,W,1,06,2.4,-21.0,M,,,,0000*07
$GPGSA,A,3,14,10,32,27,18,31,,,,,,,3.6,2.4,2.7*3F
$GPGSA,A,3,14,10,32,27,18,31,,,,,,,3.6,2.4,2.7*3F
$GPGSA,A,3,14,10,32,27,18,31,,,,,,,3.6,2.4,2.7*3F
$GPRMC,212705.001,A,3744.9294,N,12230.4165,W,000.0,000.0,241116,,,A*79
$GPRMC,212705.001,A,3744.9294,N,12230.4165,W,000.0,000.0,241116,,,A*79
$GPRMC,212705.001,A,3744.9294,N,12230.4165,W,000.0,000.0,241116,,,A*79
$GPGGA,212706.001,3744.9294,N,12230.4165,W,1,06,2.4,-21.0,M,,,,0000*04
$GPGGA,212706.001,3744.9294,N,12230.4165,W,1,06,2.4,-21.0,M,,,,0000*04
$GPGGA,212706.001,3744.9294,N,12230.4165,W,1,06,2.4,-21.0,M,,,,0000*04
$GPGSA,A,3,14,10,32,27,18,31,,,,,,,3.6,2.4,2.7*3F
$GPGSA,A,3,14,10,32,27,18,31,,,,,,,3.6,2.4,2.7*3F
$GPGSA,A,3,14,10,32,27,18,31,,,,,,,3.6,2.4,2.7*3F
$GPRMC,212706.001,A,3744.9294,N,12230.4165,W,000.0,000.0,241116,,,A*7A
$GPRMC,212706.001,A,3744.9294,N,12230.4165,W,000.0,000.0,241116,,,A*7A
$GPRMC,212706.001,A,3744.9294,N,12230.4165,W,000.0,000.0,241116,,,A*7A
$GPGGA,212707.001,3744.9294,N,12230.4165,W,1,06,2.4,-21.0,M,,,,0000*05
$GPGGA,212707.001,3744.9294,N,12230.4165,W,1,06,2.4,-21.0,M,,,,0000*05
$GPGGA,212707.001,3744.9294,N,12230.4165,W,1,06,2.4,-21.0,M,,,,0000*05
$GPGSA,A,3,14,10,32,27,18,31,,,,,,,3.6,2.4,2.7*3F
$GPGSA,A,3,14,10,32,27,18,31,,,,,,,3.6,2.4,2.7*3F
$GPGSA,A,3,14,10,32,27,18,31,,,,,,,3.6,2.4,2.7*3F
$GPGSV,3,1,12,14,73,220,29,10,49,064,28,32,76,041,25,27,24,217,33*73
$GPGSV,3,1,12,14,73,220,29,10,49,064,28,32,76,041,25,27,24,217,33*73
$GPGSV,3,1,12,14,73,220,29,10,49,064,28,32,76,041,25,27,24,217,33*73
$GPGSV,3,2,12,18,22,085,36,31,22,161,28,01,21,316,19,11,33,305,*7C
$GPGSV,3,2,12,18,22,085,36,31,22,161,28,01,21,316,19,11,33,305,*7C
$GPGSV,3,2,12,18,22,085,36,31,22,161,28,01,21,316,19,11,33,305,*7C
$GPGSV,3,3,12,08,32,263,,22,14,284,,24,06,036,,21,03,140,*7F
$GPGSV,3,3,12,08,32,263,,22,14,284,,24,06,036,,21,03,140,*7F
$GPGSV,3,3,12,08,32,263,,22,14,284,,24,06,036,,21,03,140,*7F
$GPRMC,212707.001,A,3744.9294,N,12230.4165,W,000.0,000.0,241116,,,A*7B
$GPRMC,212707.001,A,3744.9294,N,12230.4165,W,000.0,000.0,241116,,,A*7B
$GPRMC,212707.001,A,3744.9294,N,12230.4165,W,000.0,000.0,241116,,,A*7B
$GPGGA,212708.001,3744.9294,N,12230.4165,W,1,06,2.4,-21.0,M,,,,0000*0A
$GPGGA,212708.001,3744.9294,N,12230.4165,W,1,06,2.4,-21.0,M,,,,0000*0A
$GPGGA,212708.001,3744.9294,N,12230.4165,W,1,06,2.4,-21.0,M,,,,0000*0A
$GPGSA,A,3,14,10,32,27,18,31,,,,,,,3.6,2.4,2.7*3F
$GPGSA,A,3,14,10,32,27,18,31,,,,,,,3.6,2.4,2.7*3F
$GPGSA,A,3,14,10,32,27,18,31,,,,,,,3.6,2.4,2.7*3F
$GPRMC,212708.001,A,3744.9294,N,12230.4165,W,000.0,000.0,241116,,,A*74
$GPRMC,212708.001,A,3744.9294,N,12230.4165,W,000.0,000.0,241116,,,A*74
$GPRMC,212708.001,A,3744.9294,N,12230.4165,W,000.0,000.0,241116,,,A*74
Bye
